[ {
  "id" : "GME00127850",
  "latitude" : 52.5331,
  "longitude" : 13.3831,
  "name" : "BERLIN-MITTE",
  "distance" : 2.0776921509980335
}, {
  "id" : "GMW00035104",
  "latitude" : 52.4833,
  "longitude" : 13.4,
  "name" : "TEMPELHOF",
  "distance" : 4.094864049440625
}, {
  "id" : "GME00111445",
  "latitude" : 52.4683,
  "longitude" : 13.4039,
  "name" : "BERLIN-TEMPELHOF",
  "distance" : 5.749260034137326
}, {
  "id" : "GME00121150",
  "latitude" : 52.5656,
  "longitude" : 13.3106,
  "name" : "BERLIN-TEGEL",
  "distance" : 8.152487881738962
}, {
  "id" : "GME00128126",
  "latitude" : 52.4567,
  "longitude" : 13.4717,
  "name" : "BERLIN-TREPTOW",
  "distance" : 8.362922272611476
}, {
  "id" : "GMW00035110",
  "latitude" : 52.5667,
  "longitude" : 13.3,
  "name" : "TEGEL",
  "distance" : 8.796771318670672
}, {
  "id" : "GM000003319",
  "latitude" : 52.4639,
  "longitude" : 13.3017,
  "name" : "BERLIN-DAHLEM",
  "distance" : 9.371552904956935
}, {
  "id" : "GME00127798",
  "latitude" : 52.4156,
  "longitude" : 13.3053,
  "name" : "BERLIN-LICHTERFELDE (SUD)",
  "distance" : 13.430419802024636
}, {
  "id" : "GME00124586",
  "latitude" : 52.405,
  "longitude" : 13.2333,
  "name" : "KLEINMACHNOW",
  "distance" : 17.286770634273548
}, {
  "id" : "GMM00010385",
  "latitude" : 52.38,
  "longitude" : 13.523,
  "name" : "SCHONEFELD",
  "distance" : 17.501044607493778
} ]