[ {
  "id" : "GMW00035109",
  "latitude" : 52.5833,
  "longitude" : 10.0333,
  "name" : "CELLE",
  "distance" : 7.389962025047912
}, {
  "id" : "GME00132514",
  "latitude" : 52.5953,
  "longitude" : 10.0281,
  "name" : "CELLE",
  "distance" : 8.585763791279057
}, {
  "id" : "GME00132502",
  "latitude" : 52.6164,
  "longitude" : 10.0739,
  "name" : "CELLE (STADT)",
  "distance" : 11.82570057410311
}, {
  "id" : "GME00102244",
  "latitude" : 52.4656,
  "longitude" : 9.6794,
  "name" : "HANNOVER",
  "distance" : 22.53245543521344
}, {
  "id" : "GME00126886",
  "latitude" : 52.8167,
  "longitude" : 9.9331,
  "name" : "BERGEN",
  "distance" : 33.29852588416506
}, {
  "id" : "GME00122206",
  "latitude" : 52.1803,
  "longitude" : 9.9533,
  "name" : "HILDESHEIM-DRISPENSTEDT",
  "distance" : 37.90586056182727
}, {
  "id" : "GMW00035108",
  "latitude" : 52.85,
  "longitude" : 10.1833,
  "name" : "FASSBERG",
  "distance" : 38.71859614143217
}, {
  "id" : "GME00131674",
  "latitude" : 52.2903,
  "longitude" : 10.4483,
  "name" : "BRAUNSCHWEIG",
  "distance" : 39.71408765265441
}, {
  "id" : "GME00129610",
  "latitude" : 52.8514,
  "longitude" : 10.2908,
  "name" : "UNTERLUSS",
  "distance" : 41.73880824256622
}, {
  "id" : "GME00123766",
  "latitude" : 52.1419,
  "longitude" : 9.885,
  "name" : "HILDESHEIM",
  "distance" : 42.76283941971193
} ]