[ {
  "id" : "GMM00010761",
  "latitude" : 49.0203,
  "longitude" : 10.9617,
  "name" : "WEISSENBURG",
  "distance" : 3.5914443329017107
}, {
  "id" : "GME00131302",
  "latitude" : 48.8778,
  "longitude" : 11.1056,
  "name" : "DOLLNSTEIN-BREITENFURT",
  "distance" : 15.624491052636309
}, {
  "id" : "GME00121582",
  "latitude" : 48.8789,
  "longitude" : 11.2358,
  "name" : "EICHSTATT-LANDERSHOFEN",
  "distance" : 21.861905714463838
}, {
  "id" : "GME00127942",
  "latitude" : 49.2158,
  "longitude" : 11.1025,
  "name" : "ROTH",
  "distance" : 25.12908322913264
}, {
  "id" : "GMM00010765",
  "latitude" : 49.218,
  "longitude" : 11.1,
  "name" : "ROTH",
  "distance" : 25.309800773828
}, {
  "id" : "GME00130714",
  "latitude" : 48.9458,
  "longitude" : 11.3681,
  "name" : "BOHMING",
  "distance" : 27.535278191886782
}, {
  "id" : "GME00127918",
  "latitude" : 49.2519,
  "longitude" : 11.0944,
  "name" : "ROTH BEI NURNBERG",
  "distance" : 28.839976133050126
}, {
  "id" : "GME00124342",
  "latitude" : 48.7708,
  "longitude" : 10.7889,
  "name" : "KAISHEIM-NEUHOF",
  "distance" : 29.795550658203226
}, {
  "id" : "GME00123382",
  "latitude" : 48.7928,
  "longitude" : 10.7075,
  "name" : "HARBURG",
  "distance" : 31.432858418548783
}, {
  "id" : "GME00122734",
  "latitude" : 48.9489,
  "longitude" : 11.43,
  "name" : "GELBELSEE",
  "distance" : 31.894937150809884
} ]