[ {
  "id" : "GME00130642",
  "latitude" : 52.9681,
  "longitude" : 13.3281,
  "name" : "ZEHDENICK",
  "distance" : 9.298677734804045
}, {
  "id" : "GME00126478",
  "latitude" : 53.1031,
  "longitude" : 13.0439,
  "name" : "MENZ",
  "distance" : 29.865607593982585
}, {
  "id" : "GME00121526",
  "latitude" : 52.8253,
  "longitude" : 13.7994,
  "name" : "EBERSWALDE",
  "distance" : 30.10028748606053
}, {
  "id" : "GME00131014",
  "latitude" : 52.78,
  "longitude" : 13.7606,
  "name" : "MELCHOW-SCHONHOLZ",
  "distance" : 31.853770477749563
}, {
  "id" : "GME00132022",
  "latitude" : 53.3175,
  "longitude" : 13.4175,
  "name" : "FELDBERG/MECKLENBURG",
  "distance" : 35.40001362300806
}, {
  "id" : "GME00120994",
  "latitude" : 53.0331,
  "longitude" : 13.9931,
  "name" : "ANGERMUNDE",
  "distance" : 36.08296664895378
}, {
  "id" : "GME00122078",
  "latitude" : 53.3358,
  "longitude" : 13.4389,
  "name" : "FELDBERG",
  "distance" : 37.3576820062342
}, {
  "id" : "GME00132130",
  "latitude" : 52.7458,
  "longitude" : 13.8419,
  "name" : "HECKELBERG",
  "distance" : 38.31465173210037
}, {
  "id" : "GME00127438",
  "latitude" : 52.6325,
  "longitude" : 13.5039,
  "name" : "BERLIN-BUCH",
  "distance" : 40.988100000053834
}, {
  "id" : "GME00102236",
  "latitude" : 52.9053,
  "longitude" : 12.8083,
  "name" : "NEURUPPIN",
  "distance" : 44.68265024402664
} ]